2010.09.10_20.21.53.545: $GPGGA,172152.000,4956.6526,N,03616.8785,E,1,8,1.52,131.9,M,17.0,M,,*55
2010.09.10_20.21.53.657: $GPGSA,A,3,18,22,26,21,06,03,24,15,,,,,2.55,1.52,2.05*08
2010.09.10_20.21.53.661: $GPGSV,4,1,13,18,71,106,41,06,63,284,44,22,55,193,42,21,53,080,42*78
2010.09.10_20.21.53.681: $GPGSV,4,2,13,03,48,296,44,16,33,230,21,39,29,194,,24,27,268,30*7B
2010.09.10_20.21.53.686: $GPGSV,4,3,13,15,26,059,39,19,18,306,19,26,13,031,34,29,05,135,*7C
2010.09.10_20.21.53.691: $GPGSV,4,4,13,08,03,354,*42
2010.09.10_20.21.53.695: $GPRMC,172152.000,A,4956.6526,N,03616.8785,E,0.01,184.77,100910,,,A*60
2010.09.10_20.21.53.719: $GPVTG,184.77,T,,M,0.01,N,0.01,K,A*30
2010.09.10_20.21.54.513: $GPGGA,172153.000,4956.6526,N,03616.8785,E,1,9,1.25,131.9,M,17.0,M,,*55
2010.09.10_20.21.54.516: $GPGSA,A,3,18,22,26,21,06,03,16,24,15,,,,2.10,1.25,1.69*07
2010.09.10_20.21.54.532: $GPGSV,4,1,13,18,71,106,41,06,63,284,44,22,55,193,42,21,53,080,42*78
2010.09.10_20.21.54.534: $GPGSV,4,2,13,03,48,296,44,16,33,230,21,24,27,268,30,15,26,059,39*70
2010.09.10_20.21.54.538: $GPGSV,4,3,13,44,26,143,,19,18,306,19,26,13,031,34,29,05,135,*78
2010.09.10_20.21.54.546: $GPGSV,4,4,13,08,03,354,*42
2010.09.10_20.21.54.551: $GPRMC,172153.000,A,4956.6526,N,03616.8785,E,0.01,184.77,100910,,,A*61
2010.09.10_20.21.54.555: $GPVTG,184.77,T,,M,0.01,N,0.02,K,A*33
2010.09.10_20.21.55.534: $GPGGA,172154.000,4956.6527,N,03616.8785,E,1,8,1.52,131.8,M,17.0,M,,*53
2010.09.10_20.21.55.537: $GPGSA,A,3,18,22,26,21,06,03,24,15,,,,,2.55,1.52,2.05*08
2010.09.10_20.21.55.554: $GPGSV,4,1,13,18,71,106,41,06,63,284,44,22,55,193,41,21,53,080,42*7B
2010.09.10_20.21.55.560: $GPGSV,4,2,13,03,48,296,44,16,33,230,21,24,27,268,30,15,26,059,39*70
2010.09.10_20.21.55.564: $GPGSV,4,3,13,44,26,143,,19,18,306,19,26,13,031,33,29,05,135,*7F
2010.09.10_20.21.55.567: $GPGSV,4,4,13,08,03,354,*42
2010.09.10_20.21.55.573: $GPRMC,172154.000,A,4956.6527,N,03616.8785,E,0.00,184.77,100910,,,A*66
2010.09.10_20.21.55.577: $GPVTG,184.77,T,,M,0.00,N,0.01,K,A*31
2010.09.10_20.21.56.519: $GPGGA,172155.000,4956.6527,N,03616.8785,E,1,9,1.25,131.8,M,17.0,M,,*53
2010.09.10_20.21.56.522: $GPGSA,A,3,18,22,26,21,06,03,16,24,15,,,,2.10,1.25,1.69*07
2010.09.10_20.21.56.536: $GPGSV,4,1,13,18,71,106,41,06,63,284,44,22,55,193,41,21,53,080,42*7B
2010.09.10_20.21.56.540: $GPGSV,4,2,13,03,48,296,44,16,33,230,21,24,27,268,30,15,26,059,40*7E
2010.09.10_20.21.56.544: $GPGSV,4,3,13,19,18,306,19,26,13,031,32,29,05,135,,08,03,354,*75
2010.09.10_20.21.56.555: $GPGSV,4,4,13,34,,,*7C
2010.09.10_20.21.56.559: $GPRMC,172155.000,A,4956.6527,N,03616.8785,E,0.01,184.77,100910,,,A*66
2010.09.10_20.21.56.562: $GPVTG,184.77,T,,M,0.01,N,0.01,K,A*30
2010.09.10_20.21.57.548: $GPGGA,172156.000,4956.6526,N,03616.8785,E,1,9,1.14,131.8,M,17.0,M,,*53
2010.09.10_20.21.57.553: $GPGSA,A,3,18,19,22,26,21,06,03,24,15,,,,1.45,1.14,0.90*0E
2010.09.10_20.21.57.568: $GPGSV,4,1,13,18,71,106,41,06,63,284,44,22,55,193,41,21,53,080,42*7B
2010.09.10_20.21.57.577: $GPGSV,4,2,13,03,48,296,44,16,33,230,21,24,27,268,31,15,26,059,40*7F
2010.09.10_20.21.57.581: $GPGSV,4,3,13,19,18,306,20,26,13,031,32,29,05,135,,08,03,354,*7F
2010.09.10_20.21.57.585: $GPGSV,4,4,13,34,,,*7C
2010.09.10_20.21.57.589: $GPRMC,172156.000,A,4956.6526,N,03616.8785,E,0.01,184.77,100910,,,A*64
2010.09.10_20.21.57.593: $GPVTG,184.77,T,,M,0.01,N,0.01,K,A*30
2010.09.10_20.21.58.509: $GPGGA,172157.000,4956.6526,N,03616.8785,E,1,9,1.14,131.7,M,17.0,M,,*5D
2010.09.10_20.21.58.521: $GPGSA,A,3,18,19,22,26,21,06,03,24,15,,,,1.45,1.14,0.90*0E
2010.09.10_20.21.58.524: $GPGSV,4,1,13,18,71,106,41,06,63,284,44,22,55,193,41,21,53,080,42*7B
2010.09.10_20.21.58.569: $GPGSV,4,2,13,03,48,296,44,16,33,230,21,24,27,268,32,15,26,059,40*7C
2010.09.10_20.21.58.573: $GPGSV,4,3,13,19,18,306,20,26,13,031,33,29,05,135,,08,03,354,*7E
2010.09.10_20.21.58.577: $GPGSV,4,4,13,36,,,*7E
2010.09.10_20.21.58.629: $GPRMC,172157.000,A,4956.6526,N,03616.8785,E,0.07,184.77,100910,,,A*63
2010.09.10_20.21.58.679: $GPVTG,184.77,T,,M,0.07,N,0.12,K,A*34
2010.09.10_20.21.59.548: $GPGGA,172158.000,4956.6526,N,03616.8785,E,1,8,1.26,131.7,M,17.0,M,,*52
2010.09.10_20.21.59.551: $GPGSA,A,3,18,22,26,21,06,03,24,15,,,,,1.55,1.26,0.90*06
2010.09.10_20.21.59.567: $GPGSV,4,1,13,18,71,106,41,06,63,284,44,22,55,193,41,21,53,080,42*7B
2010.09.10_20.21.59.574: $GPGSV,4,2,13,03,48,296,44,16,33,230,21,24,27,268,33,15,26,059,40*7D
2010.09.10_20.21.59.588: $GPGSV,4,3,13,19,18,306,20,26,13,031,34,29,05,135,,08,03,354,*79
2010.09.10_20.21.59.600: $GPGSV,4,4,13,36,,,*7E
2010.09.10_20.21.59.611: $GPRMC,172158.000,A,4956.6526,N,03616.8785,E,0.04,184.77,100910,,,A*6F
2010.09.10_20.21.59.615: $GPVTG,184.77,T,,M,0.04,N,0.07,K,A*33
2010.09.10_20.22.00.510: $GPGGA,172159.000,4956.6526,N,03616.8785,E,1,10,1.01,131.7,M,17.0,M,,*6F
2010.09.10_20.22.00.551: $GPGSA,A,3,18,19,22,26,21,06,03,16,24,15,,,1.33,1.01,0.86*0B
2010.09.10_20.22.00.555: $GPGSV,4,1,13,18,71,106,41,06,63,284,43,22,55,193,42,21,53,080,41*7C
2010.09.10_20.22.00.644: $GPGSV,4,2,13,03,48,296,44,16,33,230,22,24,27,268,32,15,26,059,40*7F
2010.09.10_20.22.00.647: $GPGSV,4,3,13,19,18,306,20,26,13,031,34,29,05,135,,08,03,354,*79
2010.09.10_20.22.00.654: $GPGSV,4,4,13,38,,,*70
2010.09.10_20.22.00.698: $GPRMC,172159.000,A,4956.6526,N,03616.8785,E,0.06,184.77,100910,,,A*6C
2010.09.10_20.22.00.702: $GPVTG,184.77,T,,M,0.06,N,0.12,K,A*35
2010.09.10_20.22.01.543: $GPGGA,172200.000,4956.6526,N,03616.8785,E,1,9,1.15,131.7,M,17.0,M,,*5D
2010.09.10_20.22.01.553: $GPGSA,A,3,18,22,26,21,06,03,16,24,15,,,,1.44,1.15,0.86*06
2010.09.10_20.22.01.557: $GPGSV,4,1,13,18,71,106,41,06,63,284,42,22,55,193,42,21,53,080,40*7C
2010.09.10_20.22.01.575: $GPGSV,4,2,13,03,48,296,43,16,33,230,35,24,27,268,30,15,26,059,40*7C
2010.09.10_20.22.01.585: $GPGSV,4,3,13,19,18,306,19,26,13,031,34,29,05,135,,08,03,354,*73
2010.09.10_20.22.01.603: $GPGSV,4,4,13,38,,,*70
2010.09.10_20.22.01.608: $GPRMC,172200.000,A,4956.6526,N,03616.8785,E,0.05,184.77,100910,,,A*60
2010.09.10_20.22.01.621: $GPVTG,184.77,T,,M,0.05,N,0.09,K,A*3C
2010.09.10_20.22.02.523: $GPGGA,172201.000,4956.6526,N,03616.8785,E,1,10,1.15,131.7,M,17.0,M,,*64
2010.09.10_20.22.02.526: $GPGSA,A,3,18,19,22,26,21,06,03,16,24,15,,,2.03,1.15,1.67*00
2010.09.10_20.22.02.544: $GPGSV,4,1,13,18,71,106,41,06,63,284,41,22,55,193,42,21,53,080,39*71
2010.09.10_20.22.02.548: $GPGSV,4,2,13,03,48,296,42,16,33,230,33,24,27,268,30,15,26,059,40*7B
2010.09.10_20.22.02.555: $GPGSV,4,3,13,19,18,306,19,26,13,031,35,29,05,135,,08,03,354,*72
2010.09.10_20.22.02.562: $GPGSV,4,4,13,40,,,*7F
2010.09.10_20.22.02.566: $GPRMC,172201.000,A,4956.6526,N,03616.8785,E,1.23,184.77,100910,,,A*64
2010.09.10_20.22.02.570: $GPVTG,184.77,T,,M,1.23,N,2.29,K,A*39
2010.09.10_20.22.03.539: $GPGGA,172202.000,4956.6522,N,03616.8784,E,1,9,1.15,131.7,M,17.0,M,,*5A
2010.09.10_20.22.03.543: $GPGSA,A,3,18,22,26,21,06,03,16,24,15,,,,1.44,1.15,0.86*06
2010.09.10_20.22.03.563: $GPGSV,4,1,13,18,71,106,42,06,63,284,41,22,55,193,42,21,53,080,38*73
2010.09.10_20.22.03.566: $GPGSV,4,2,13,03,48,296,34,16,33,230,34,24,27,268,31,15,26,059,39*72
2010.09.10_20.22.03.570: $GPGSV,4,3,13,19,18,306,18,26,13,031,34,29,05,135,,08,03,354,*72
2010.09.10_20.22.03.574: $GPGSV,4,4,13,40,,,*7F
2010.09.10_20.22.03.577: $GPRMC,172202.000,A,4956.6522,N,03616.8784,E,3.37,186.39,100910,,,A*6D
2010.09.10_20.22.03.581: $GPVTG,186.39,T,,M,3.37,N,6.25,K,A*3E
2010.09.10_20.22.04.513: $GPGGA,172203.000,4956.6505,N,03616.8784,E,1,9,1.15,131.9,M,17.0,M,,*50
2010.09.10_20.22.04.516: $GPGSA,A,3,18,22,26,21,06,03,16,24,15,,,,1.44,1.15,0.86*06
2010.09.10_0020.22.04.534: $GPGSV,4,1,13,18,71,106,42,06,63,284,41,22,55,193,41,21,53,080,38*70
2010.09.10_20.22.04.544: $GPGSV,4,2,13,03,48,296,48,16,33,230,35,24,27,268,30,15,26,059,38*78
2010.09.10_20.22.04.556: $GPGSV,4,3,13,19,18,306,18,26,13,031,34,29,05,135,,08,03,354,*72
2010.09.10_20.22.04.564: $GPGSV,4,4,13,41,,,*7E
2010.09.10_20.22.04.572: $GPRMC,172203.000,A,4956.6505,N,03616.8784,E,7.92,169.94,100910,,,A*64
2010.09.10_20.22.04.576: $GPVTG,169.94,T,,M,7.92,N,14.68,K,A*09
2010.09.10_20.22.05.518: $GPGGA,172204.000,4956.6480,N,03616.8792,E,1,9,1.25,131.7,M,17.0,M,,*51
2010.09.10_20.22.05.521: $GPGSA,A,3,18,22,26,21,06,03,16,24,15,,,,2.10,1.25,1.69*07
2010.09.10_20.22.05.536: $GPGSV,4,1,13,18,71,106,42,06,63,284,42,22,55,193,41,21,53,080,39*72
2010.09.10_20.22.05.540: $GPGSV,4,2,13,03,48,296,47,16,33,230,35,24,27,268,32,15,26,059,30*7D
2010.09.10_20.22.05.554: $GPGSV,4,3,13,19,18,306,18,26,13,031,32,29,05,135,,08,03,354,*74
2010.09.10_20.22.05.558: $GPGSV,4,4,13,41,,,*7E
2010.09.10_20.22.05.561: $GPRMC,172204.000,A,4956.6480,N,03616.8792,E,9.74,167.42,100910,,,A*6B
2010.09.10_20.22.05.565: $GPVTG,167.42,T,,M,9.74,N,18.05,K,A*0D
2010.09.10_20.22.06.539: $GPGGA,172205.000,4956.6453,N,03616.8809,E,1,9,1.25,132.5,M,17.0,M,,*52
2010.09.10_20.22.06.542: $GPGSA,M,3,18,22,26,21,06,03,16,24,15,,,,2.10,1.25,1.69*0B
2010.09.10_20.22.06.546: $GPGSV,4,1,13,18,71,106,43,06,63,284,43,22,55,193,42,21,53,080,38*70
2010.09.10_20.22.06.562: $GPGSV,4,2,13,03,48,296,47,16,33,230,28,24,27,268,34,15,26,059,31*76
2010.09.10_20.22.06.564: $GPGSV,4,3,13,19,18,306,18,26,13,031,33,29,05,135,,08,03,354,*75
2010.09.10_20.22.06.568: $GPGSV,4,4,13,43,,,*7C
2010.09.10_20.22.06.571: $GPRMC,172205.000,A,4956.6453,N,03616.8809,E,9.13,157.48,100910,,,A*61
2010.09.10_20.22.06.579: $GPVTG,157.48,T,,M,9.13,N,16.92,K,A*05
2010.09.10_20.22.07.509: $GPGGA,172206.000,4956.6433,N,03616.8826,E,1,10,1.15,132.6,M,17.0,M,,*62
2010.09.10_20.22.07.512: $GPGSA,A,3,18,19,22,26,21,06,03,16,24,15,,,2.03,1.15,1.67*00
2010.09.10_20.22.07.516: $GPGSV,4,1,13,18,71,106,43,06,63,284,45,22,55,193,35,21,53,080,40*79
2010.09.10_20.22.07.520: $GPGSV,4,2,13,03,48,296,48,16,33,230,37,24,27,268,32,15,26,059,31*71
2010.09.10_20.22.07.534: $GPGSV,4,3,13,19,18,306,20,26,13,031,35,29,05,135,,08,03,354,*78
2010.09.10_20.22.07.539: $GPGSV,4,4,13,43,,,*7C
2010.09.10_20.22.07.542: $GPRMC,172206.000,A,4956.6433,N,03616.8826,E,8.81,149.15,100910,,,A*64
2010.09.10_20.22.07.546: $GPVTG,149.15,T,,M,8.81,N,16.32,K,A*02
2010.09.10_20.22.08.553: $GPGGA,172207.000,4956.6411,N,03616.8849,E,1,9,1.25,132.2,M,17.0,M,,*55
2010.09.10_20.22.08.556: $GPGSA,A,3,18,22,26,21,06,03,16,24,15,,,,2.10,1.25,1.69*07
2010.09.10_20.22.08.565: $GPGSV,4,1,13,18,71,106,42,06,63,284,46,22,55,193,36,21,53,080,41*79
2010.09.10_20.22.08.579: $GPGSV,4,2,13,03,48,296,48,16,33,230,36,24,27,268,40,15,26,059,32*76
2010.09.10_20.22.08.593: $GPGSV,4,3,13,19,18,306,20,26,13,031,34,29,05,135,,08,03,354,*79
2010.09.10_20.22.08.604: $GPGSV,4,4,13,45,,,*7A
2010.09.10_20.22.08.611: $GPRMC,172207.000,A,4956.6411,N,03616.8849,E,9.76,143.97,100910,,,A*65
2010.09.10_20.22.08.620: $GPVTG,143.97,T,,M,9.76,N,18.08,K,A*0C
2010.09.10_20.22.09.508: $GPGGA,172208.000,4956.6388,N,03616.8875,E,1,10,1.15,132.1,M,17.0,M,,*6A
2010.09.10_20.22.09.542: $GPGSA,A,3,18,19,22,26,21,06,03,16,24,15,,,2.03,1.15,1.67*00
2010.09.10_20.22.09.550: $GPGSV,4,1,13,18,71,106,41,06,63,284,47,22,55,193,36,21,53,080,40*7A
2010.09.10_20.22.09.554: $GPGSV,4,2,13,03,48,296,48,16,33,230,35,24,27,268,40,15,26,059,31*76
2010.09.10_20.22.09.557: $GPGSV,4,3,13,19,18,306,21,26,13,031,33,29,05,135,,08,03,354,*7F
2010.09.10_20.22.09.576: $GPGSV,4,4,13,45,,,*7A
2010.09.10_20.22.09.580: $GPRMC,172208.000,A,4956.6388,N,03616.8875,E,11.10,142.49,100910,,,A*59
2010.09.10_20.22.09.586: $GPVTG,142.49,T,,M,11.10,N,20.57,K,A*36
2010.09.10_20.22.10.544: $GPGGA,172209.000,4956.6363,N,03616.8905,E,1,10,1.15,131.8,M,17.0,M,,*62
2010.09.10_20.22.10.548: $GPGSA,A,3,18,19,22,26,21,06,03,16,24,15,,,2.03,1.15,1.67*00
2010.09.10_20.22.10.559: $GPGSV,4,1,13,18,71,106,42,06,63,284,48,22,55,193,37,21,53,080,41*76
2010.09.10_20.22.10.566: $GPGSV,4,2,13,03,48,296,48,16,33,230,35,24,27,268,39,15,26,059,32*7B
2010.09.10_20.22.10.570: $GPGSV,4,3,13,19,18,306,35,26,13,031,34,29,05,135,,08,03,354,*7D
2010.09.10_20.22.10.579: $GPGSV,4,4,13,46,,,*79
2010.09.10_20.22.10.583: $GPRMC,172209.000,A,4956.6363,N,03616.8905,E,12.67,145.55,100910,,,A*52
2010.09.10_20.22.10.587: $GPVTG,145.55,T,,M,12.67,N,23.48,K,A*32
2010.09.10_20.22.11.543: $GPGGA,172210.000,4956.6329,N,03616.8932,E,1,10,1.01,131.5,M,17.0,M,,*68
2010.09.10_20.22.11.554: $GPGSA,A,3,18,19,22,26,21,06,03,16,24,15,,,1.33,1.01,0.86*0B
2010.09.10_20.22.11.561: $GPGSV,4,1,13,18,71,106,42,06,63,284,47,22,55,193,38,21,53,080,41*76
2010.09.10_20.22.11.565: $GPGSV,4,2,13,03,48,296,46,16,33,230,34,24,27,268,30,15,26,059,39*76
2010.09.10_20.22.11.571: $GPGSV,4,3,13,19,18,306,35,26,13,031,33,29,05,135,,08,03,354,*7A
2010.09.10_20.22.11.575: $GPGSV,4,4,13,46,,,*79
2010.09.10_20.22.11.585: $GPRMC,172210.000,A,4956.6329,N,03616.8932,E,14.01,159.73,100910,,,A*5F
2010.09.10_20.22.11.589: $GPVTG,159.73,T,,M,14.01,N,25.96,K,A*38
2010.09.10_20.22.12.504: $GPGGA,172211.000,4956.6279,N,03616.8938,E,1,10,1.15,131.5,M,17.0,M,,*62
2010.09.10_20.22.12.508: $GPGSA,A,3,18,19,22,26,21,06,03,16,24,15,,,2.03,1.15,1.67*00
2010.09.10_20.22.12.515: $GPGSV,4,1,13,18,71,106,43,06,63,284,36,22,55,193,40,21,53,080,41*7E
2010.09.10_20.22.12.521: $GPGSV,4,2,13,03,48,296,46,16,33,230,34,24,27,268,29,15,26,059,38*7F
2010.09.10_20.22.12.617: $GPGSV,4,3,13,19,18,306,36,26,13,031,32,29,05,135,,08,03,354,*78
2010.09.10_20.22.12.621: $GPGSV,4,4,13,49,,,*76
2010.09.10_20.22.12.624: $GPRMC,172211.000,A,4956.6279,N,03616.8938,E,18.08,178.25,100910,,,A*55
2010.09.10_20.22.12.628: $GPVTG,178.25,T,,M,18.08,N,33.50,K,A*30
2010.09.10_20.22.13.550: $GPGGA,172212.000,4956.6227,N,03616.8940,E,1,10,1.15,131.4,M,17.0,M,,*64
2010.09.10_20.22.13.553: $GPGSA,A,3,18,19,22,26,21,06,03,16,24,15,,,2.03,1.15,1.67*00
2010.09.10_20.22.13.564: $GPGSV,4,1,13,18,71,106,43,06,63,284,38,22,55,193,41,21,53,080,42*72
2010.09.10_20.22.13.571: $GPGSV,4,2,13,03,48,296,39,16,33,230,35,24,27,268,28,15,26,059,38*77
2010.09.10_20.22.13.575: $GPGSV,4,3,13,19,18,306,36,26,13,031,32,29,05,135,,08,03,354,*78
2010.09.10_20.22.13.584: $GPGSV,4,4,13,49,,,*76
2010.09.10_20.22.13.588: $GPRMC,172212.000,A,4956.6227,N,03616.8940,E,18.36,181.33,100910,,,A*5E
2010.09.10_20.22.13.591: $GPVTG,181.33,T,,M,18.36,N,34.01,K,A*3F
2010.09.10_20.22.14.533: $GPGGA,172213.000,4956.6169,N,03616.8937,E,1,10,1.15,130.8,M,17.0,M,,*61
2010.09.10_20.22.14.537: $GPGSA,A,3,18,19,22,26,21,06,03,16,24,15,,,2.03,1.15,1.67*00
2010.09.10_20.22.14.546: $GPGSV,4,1,13,18,71,106,43,06,63,284,39,22,55,193,42,21,53,080,43*71
2010.09.10_20.22.14.552: $GPGSV,4,2,13,03,48,296,38,16,33,230,36,24,27,268,29,15,26,059,36*7A
2010.09.10_20.22.14.561: $GPGSV,4,3,13,19,18,306,37,26,13,031,33,29,05,135,,08,03,354,*78
2010.09.10_20.22.14.568: $GPGSV,4,4,13,42,,,*7D
2010.09.10_20.22.14.572: $GPRMC,172213.000,A,4956.6169,N,03616.8937,E,19.89,180.88,100910,,,A*52
2010.09.10_20.22.14.576: $GPVTG,180.88,T,,M,19.89,N,36.86,K,A*36
2010.09.10_20.22.15.483: $GPGGA,172214.000,4956.6111,N,03616.8937,E,1,9,1.18,130.0,M,17.0,M,,*54
2010.09.10_20.22.15.486: $GPGSA,A,3,18,19,22,26,21,06,03,16,15,,,,2.09,1.18,1.73*04
2010.09.10_20.22.15.504: $GPGSV,4,1,13,18,71,106,43,06,63,284,39,22,55,193,42,21,53,080,43*71
2010.09.10_20.22.15.512: $GPGSV,4,2,13,03,48,296,40,16,33,230,36,24,27,268,27,15,26,059,36*7B
2010.09.10_20.22.15.520: $GPGSV,4,3,13,19,18,306,37,26,13,031,33,29,05,135,,08,03,353,*7F
2010.09.10_20.22.15.525: $GPGSV,4,4,13,42,,,*7D
2010.09.10_20.22.15.529: $GPRMC,172214.000,A,4956.6111,N,03616.8937,E,21.67,179.81,100910,,,A*5E
2010.09.10_20.22.15.533: $GPVTG,179.81,T,,M,21.67,N,40.16,K,A*3A
2010.09.10_20.22.16.568: $GPGGA,172215.000,4956.6046,N,03616.8932,E,1,10,1.01,129.9,M,17.0,M,,*62
2010.09.10_20.22.16.576: $GPGSA,A,3,18,19,22,26,21,06,03,16,24,15,,,1.33,1.01,0.86*0B
2010.09.10_20.22.16.580: $GPGSV,4,1,13,18,71,106,43,06,63,284,40,22,55,193,42,21,53,080,42*7E
2010.09.10_20.22.16.584: $GPGSV,4,2,13,03,48,296,40,16,33,230,35,24,27,268,26,15,26,059,36*79
2010.09.10_20.22.16.595: $GPGSV,4,3,13,19,18,306,37,26,13,031,34,29,05,135,,08,03,353,*78
2010.09.10_20.22.16.601: $GPGSV,4,4,13,50,,,*7E
2010.09.10_20.22.16.612: $GPRMC,172215.000,A,4956.6046,N,03616.8932,E,23.02,180.01,100910,,,A*56
2010.09.10_20.22.16.616: $GPVTG,180.01,T,,M,23.02,N,42.65,K,A*33
2010.09.10_20.22.17.534: $GPGGA,172216.000,4956.5980,N,03616.8928,E,1,10,1.15,129.3,M,17.0,M,,*65
2010.09.10_20.22.17.537: $GPGSA,A,3,18,19,22,26,21,06,03,16,24,15,,,2.03,1.15,1.67*00
2010.09.10_20.22.17.546: $GPGSV,4,1,13,18,71,106,43,06,63,284,40,22,55,193,42,21,53,080,41*7D
2010.09.10_20.22.17.550: $GPGSV,4,2,13,03,48,296,41,16,33,230,34,24,27,268,27,15,26,059,35*7B
2010.09.10_20.22.17.554: $GPGSV,4,3,13,19,18,306,38,26,13,031,34,29,05,135,,08,03,353,*77
2010.09.10_20.22.17.568: $GPGSV,4,4,13,50,,,*7E
2010.09.10_20.22.17.571: $GPRMC,172216.000,A,4956.5980,N,03616.8928,E,23.58,179.52,100910,,,A*51
2010.09.10_20.22.17.575: $GPVTG,179.52,T,,M,23.58,N,43.69,K,A*31
2010.09.10_20.22.18.493: $GPGGA,172217.000,4956.5913,N,03616.8928,E,1,10,1.15,128.5,M,17.0,M,,*69
2010.09.10_20.22.18.496: $GPGSA,A,3,18,19,22,26,21,06,03,16,24,15,,,2.03,1.15,1.67*00
2010.09.10_20.22.18.500: $GPGSV,4,1,13,18,71,106,43,06,63,284,40,22,55,193,42,21,53,080,41*7D
2010.09.10_20.22.18.504: $GPGSV,4,2,13,03,48,296,42,16,33,230,34,24,27,268,26,15,26,059,35*79
2010.09.10_20.22.18.513: $GPGSV,4,3,13,19,18,306,38,26,13,031,33,29,05,135,,08,03,353,*70
2010.09.10_20.22.18.517: $GPGSV,4,4,13,47,,,*78
2010.09.10_20.22.18.513: $GPRMC,172217.000,A,4956.5913,N,03616.8928,E,24.39,180.69,100910,,,A*54
2010.09.10_20.22.18.532: $GPVTG,180.69,T,,M,24.39,N,45.19,K,A*3E
2010.09.10_20.22.19.568: $GPGGA,172218.000,4956.5846,N,03616.8927,E,1,9,1.04,128.0,M,17.0,M,,*55
2010.09.10_20.22.19.571: $GPGSA,A,3,18,19,22,26,21,06,03,16,15,,,,1.36,1.04,0.87*0C
2010.09.10_20.22.19.0575: $GPGSV,4,1,13,18,71,106,43,06,63,284,40,22,55,193,42,21,53,080,33*78
2010.09.10_20.22.19.588: $GPGSV,4,2,13,03,48,296,41,16,33,230,34,24,27,268,24,15,26,059,34*79
2010.09.10_20.22.19.592: $GPGSV,4,3,13,19,18,306,37,26,13,031,32,29,05,135,,08,03,353,*7E
2010.09.10_20.22.19.596: $GPGSV,4,4,13,47,,,*78
2010.09.10_20.22.19.600: $GPRMC,172218.000,A,4956.5846,N,03616.8927,E,24.02,180.76,100910,,,A*53
2010.09.10_20.22.19.603: $GPVTG,180.76,T,,M,24.02,N,44.51,K,A*35
2010.09.10_20.22.20.538: $GPGGA,172219.000,4956.5778,N,03616.8926,E,1,9,1.10,127.5,M,17.0,M,,*58
2010.09.10_20.22.20.551: $GPGSA,A,3,18,19,22,21,06,03,16,24,15,,,,1.41,1.10,0.88*04
2010.09.10_20.22.20.557: $GPGSV,4,1,13,18,71,106,43,06,63,284,39,22,55,193,41,21,53,080,43*72
2010.09.10_20.22.020.574: $GPGSV,4,2,13,03,48,296,39,16,33,230,33,24,27,268,24,15,26,059,33*76
2010.09.10_20.22.20.584: $GPGSV,4,3,13,19,18,306,36,26,13,031,24,29,05,135,,08,03,353,*78
2010.09.10_20.22.20.598: $GPGSV,4,4,13,51,,,*7F
2010.09.10_20.22.20.602: $GPRMC,172219.000,A,4956.5778,N,03616.8926,E,24.53,180.39,100910,,,A*5E
2010.09.10_20.22.20.616: $GPVTG,180.39,T,,M,24.53,N,45.45,K,A*3E
2010.09.10_20.22.21.458: $GPGGA,172220.000,4956.5709,N,03616.8924,E,1,10,1.01,126.8,M,17.0,M,,*62
2010.09.10_20.22.21.471: $GPGSA,A,3,18,19,22,26,21,06,03,16,24,15,,,1.33,1.01,0.86*0B
2010.09.10_20.22.21.475: $GPGSV,4,1,13,18,71,106,43,06,63,284,32,22,55,193,42,21,53,080,42*7B
2010.09.10_20.22.21.479: $GPGSV,4,2,13,03,48,296,38,16,33,230,34,24,27,268,25,15,26,059,32*70
2010.09.10_20.22.21.489: $GPGSV,4,3,13,19,18,306,36,26,13,031,25,29,05,135,,08,03,353,*79
2010.09.10_20.22.21.497: $GPGSV,4,4,13,51,,,*7F
2010.09.10_20.22.21.521: $GPRMC,172220.000,A,4956.5709,N,03616.8924,E,24.44,179.71,100910,,,A*5C
2010.09.10_20.22.21.526: $GPVTG,179.71,T,,M,24.44,N,45.29,K,A*38
2010.09.10_20.22.22.555: $GPGGA,172221.000,4956.5642,N,03616.8924,E,1,8,1.22,126.5,M,17.0,M,,*58
2010.09.10_20.22.22.559: $GPGSA,A,3,18,19,22,21,06,03,16,15,,,,,2.26,1.22,1.90*09
2010.09.10_20.22.22.573: $GPGSV,4,1,13,18,71,106,43,06,63,284,39,22,55,193,42,21,53,080,43*71
2010.09.10_20.22.22.577: $GPGSV,4,2,13,03,48,296,46,16,33,230,34,24,27,268,25,15,25,058,33*7A
2010.09.10_20.22.0022.580: $GPGSV,4,3,13,19,18,306,37,26,13,031,24,29,05,135,,08,03,353,*79
2010.09.10_20.22.22.589: $GPGSV,4,4,13,48,,,*77
2010.09.10_20.22.22.592: $GPRMC,172221.000,A,4956.5642,N,03616.8924,E,23.93,179.61,100910,,,A*5F
2010.09.10_20.22.22.596: $GPVTG,179.61,T,,M,23.93,N,44.35,K,A*38
2010.09.10_20.22.23.514: $GPGGA,172222.000,4956.5576,N,03616.8924,E,1,10,1.15,125.8,M,17.0,M,,*6C
2010.09.10_20.22.23.518: $GPGSA,A,3,18,19,22,26,21,06,03,16,24,15,,,2.03,1.15,1.67*00
2010.09.10_20.22.23.531: $GPGSV,4,1,13,18,71,106,43,06,63,284,40,22,55,193,42,21,53,080,43*7F
2010.09.10_20.22.23.535: $GPGSV,4,2,13,03,48,296,45,16,33,230,34,24,27,268,26,15,25,058,33*7A
2010.09.10_20.22.23.539: $GPGSV,4,3,13,19,18,306,38,26,13,031,32,29,05,135,,08,03,353,*71
2010.09.10_20.22.23.550: $GPGSV,4,4,13,48,,,*77
2010.09.10_20.22.23.554: $GPRMC,172222.000,A,4956.5576,N,03616.8924,E,23.93,179.51,100910,,,A*5B
2010.09.10_20.22.23.558: $GPVTG,179.51,T,,M,23.93,N,44.33,K,A*3D
2010.09.10_20.22.24.528: $GPGGA,172223.000,4956.5506,N,03616.8919,E,1,9,1.04,125.7,M,17.0,M,,*53
2010.09.10_20.22.24.531: $GPGSA,A,3,18,19,22,26,21,06,03,16,15,,,,1.36,1.04,0.87*0C
2010.09.10_20.22.24.535: $GPGSV,4,1,13,18,71,106,43,06,63,284,39,22,55,193,42,21,53,080,43*71
2010.09.10_20.22.24.539: $GPGSV,4,2,13,03,48,296,38,16,33,230,33,24,27,268,25,15,25,058,33*74
2010.09.10_20.22.24.630: $GPGSV,4,3,13,19,18,306,37,26,13,031,32,29,05,135,,08,03,353,*7E
2010.09.10_20.22.24.634: $GPGSV,4,4,13,35,,,*7D
2010.09.10_20.22.24.638: $GPRMC,172223.000,A,4956.5506,N,03616.8919,E,23.85,180.21,100910,,,A*55
2010.09.10_20.22.24.642: $GPVTG,180.21,T,,M,23.85,N,44.19,K,A*33
2010.09.10_20.22.25.619: $GPGGA,172224.000,4956.5437,N,03616.8918,E,1,10,1.15,125.0,M,17.0,M,,*69
2010.09.10_20.22.25.622: $GPGSA,A,3,18,19,22,26,21,06,03,16,24,15,,,2.03,1.15,1.67*00
2010.09.10_20.22.25.634: $GPGSV,4,1,13,18,71,105,43,06,63,284,39,22,55,193,42,21,53,080,43*72
2010.09.10_20.22.25.640: $GPGSV,4,2,13,03,48,296,39,16,33,230,33,24,27,268,26,15,25,058,34*71
2010.09.10_20.22.25.644: $GPGSV,4,3,13,19,18,306,37,26,13,031,33,29,05,135,,08,03,353,*7F
2010.09.10_20.22.25.647: $GPGSV,4,4,13,35,,,*7D
2010.09.10_20.22.25.651: $GPRMC,172224.000,A,4956.5437,N,03616.8918,E,23.85,180.74,100910,,,A*50
2010.09.10_20.22.25.655: $GPVTG,180.74,T,,M,23.85,N,44.19,K,A*33
2010.09.10_20.22.26.543: $GPGGA,172225.000,4956.5370,N,03616.8915,E,1,10,1.15,124.8,M,17.0,M,,*68
2010.09.10_20.22.26.546: $GPGSA,A,3,18,19,22,26,21,06,03,16,24,15,,,2.03,1.15,1.67*00
2010.09.10_20.22.26.551: $GPGSV,4,1,13,18,71,105,43,06,63,284,40,22,55,193,42,21,53,080,44*7B
2010.09.10_20.22.26.555: $GPGSV,4,2,13,03,48,296,39,16,33,230,34,37,31,199,,24,27,268,26*78
2010.09.10_20.22.26.569: $GPGSV,4,3,13,15,25,058,34,19,18,306,35,26,13,031,33,29,05,135,*7A
2010.09.10_20.22.26.572: $GPGSV,4,4,13,08,03,353,*45
2010.09.10_20.22.26.576: $GPRMC,172225.000,A,4956.5370,N,03616.8915,E,23.26,181.45,100910,,,A*52
2010.09.10_20.22.26.582: $GPVTG,181.45,T,,M,23.26,N,43.10,K,A*37
2010.09.10_20.22.27.513: $GPGGA,172226.000,4956.5303,N,03616.8914,E,1,10,1.01,124.4,M,17.0,M,,*67
2010.09.10_20.22.27.516: $GPGSA,A,3,18,19,22,26,21,06,03,16,24,15,,,1.33,1.01,0.86*0B
2010.09.10_20.22.27.521: $GPGSV,4,1,13,18,71,105,43,06,63,284,40,22,55,193,42,21,53,080,44*7B
2010.09.10_20.22.27.524: $GPGSV,4,2,13,03,48,296,38,16,33,230,34,37,31,199,,24,27,268,26*79
2010.09.10_20.22.27.539: $GPGSV,4,3,13,15,25,058,34,19,18,306,34,26,13,031,33,29,05,135,*7B
2010.09.10_20.22.27.543: $GPGSV,4,4,13,08,03,353,*45
2010.09.10_20.22.27.546: $GPRMC,172226.000,A,4956.5303,N,03616.8914,E,23.84,180.49,100910,,,A*51
2010.09.10_20.22.27.552: $GPVTG,180.49,T,,M,23.84,N,44.18,K,A*3D
2010.09.10_20.22.28.548: $GPGGA,172227.000,4956.5233,N,03616.8912,E,1,10,1.15,123.6,M,17.0,M,,*62
2010.09.10_20.22.28.552: $GPGSA,A,3,18,19,22,26,21,06,03,16,24,15,,,2.03,1.15,1.67*00
2010.09.10_20.0022.28.567: $GPGSV,4,1,13,18,71,105,43,06,63,284,39,22,55,193,42,21,53,080,44*75
2010.09.10_20.22.28.569: $GPGSV,4,2,13,03,48,296,38,16,33,230,34,37,31,199,,24,27,268,26*79
2010.09.10_20.22.28.573: $GPGSV,4,3,13,15,25,058,35,19,18,306,35,26,13,031,33,29,05,135,*7B
2010.09.10_20.22.28.577: $GPGSV,4,4,13,08,03,353,*45
2010.09.10_20.22.28.585: $GPRMC,172227.000,A,4956.5233,N,03616.8912,E,24.58,179.09,100910,,,A*50
2010.09.10_20.22.28.589: $GPVTG,179.09,T,,M,24.58,N,45.54,K,A*30
2010.09.10_20.22.29.553: $GPGGA,172228.000,4956.5166,N,03616.8912,E,1,10,1.01,122.7,M,17.0,M,,*6B
2010.09.10_20.22.29.556: $GPGSA,A,3,18,19,22,26,21,06,03,16,24,15,,,1.33,1.01,0.86*0B
2010.09.10_20.22.29.560: $GPGSV,4,1,13,18,71,105,43,06,63,284,40,22,55,193,42,21,53,080,43*7C
2010.09.10_20.22.29.564: $GPGSV,4,2,13,03,48,296,39,16,33,230,33,37,31,199,28,24,27,268,27*74
2010.09.10_20.22.29.578: $GPGSV,4,3,13,15,25,058,35,19,18,306,36,26,13,031,33,29,05,135,*78
2010.09.10_20.22.29.597: $GPGSV,4,4,13,08,03,353,*45
2010.09.10_20.22.29.600: $GPRMC,172228.000,A,4956.5166,N,03616.8912,E,24.82,180.25,100910,,,A*53
2010.09.10_20.22.29.614: $GPVTG,180.25,T,,M,24.82,N,45.99,K,A*3E
2010.09.10_20.22.30.513: $GPGGA,172229.000,4956.5095,N,03616.8914,E,1,10,1.15,121.8,M,17.0,M,,*68
2010.09.10_20.22.30.516: $GPGSA,A,3,18,19,22,26,21,06,03,16,24,15,,,2.03,1.15,1.67*00
2010.09.10_20.22.30.543: $GPGSV,4,1,13,18,71,105,43,06,63,284,40,22,55,193,43,21,53,080,43*7D
2010.09.10_20.22.30.560: $GPGSV,4,2,13,03,48,296,41,16,33,230,33,37,31,199,30,24,27,268,28*7D
2010.09.10_20.22.30.570: $GPGSV,4,3,13,15,25,058,35,19,18,306,37,26,13,031,32,29,05,135,*78
2010.09.10_20.22.30.579: $GPGSV,4,4,13,08,03,353,*45
2010.09.10_20.22.30.595: $GPRMC,172229.000,A,4956.5095,N,03616.8914,E,24.50,180.66,100910,,,A*51
2010.09.10_20.22.30.599: $GPVTG,180.66,T,,M,24.50,N,45.40,K,A*32
2010.09.10_20.22.31.562: $GPGGA,172230.000,4956.5025,N,03616.8910,E,1,10,1.01,121.6,M,17.0,M,,*64
2010.09.10_20.22.31.571: $GPGSA,A,3,18,19,22,26,21,06,03,16,24,15,,,1.33,1.01,0.86*0B
2010.09.10_20.22.31.574: $GPGSV,4,1,13,18,71,105,43,06,63,284,40,22,55,193,43,21,53,080,43*7D
2010.09.10_20.22.31.593: $GPGSV,4,2,13,03,48,296,41,16,33,230,33,37,31,199,30,24,28,268,29*73
2010.09.10_20.22.31.601: $GPGSV,4,3,13,15,25,058,35,19,18,306,37,26,13,031,32,29,05,135,*78
2010.09.10_20.22.31.616: $GPGSV,4,4,13,08,03,353,*45
2010.09.10_20.22.31.623: $GPRMC,172230.000,A,4956.5025,N,03616.8910,E,24.71,180.52,100910,,,A*52
2010.09.10_20.22.31.626: $GPVTG,180.52,T,,M,24.71,N,45.79,K,A*3C
2010.09.10_20.22.32.522: $GPGGA,172231.000,4956.4958,N,03616.8914,E,1,10,1.15,120.6,M,17.0,M,,*67
2010.09.10_20.22.32.527: $GPGSA,A,3,18,19,22,26,21,06,03,16,24,15,,,2.03,1.15,1.67*00
2010.09.10_20.22.32.532: $GPGSV,4,1,13,18,71,105,44,06,63,284,40,22,55,193,43,21,53,080,44*7D
2010.09.10_20.22.032.544: $GPGSV,4,2,13,03,48,296,41,16,33,230,34,37,31,199,,24,28,268,28*76
2010.09.10_20.22.32.548: $GPGSV,4,3,13,15,25,058,35,19,18,306,37,26,13,031,31,29,05,135,*7B
2010.09.10_20.22.32.554: $GPGSV,4,4,13,08,03,353,*45
2010.09.10_20.22.32.562: $GPRMC,172231.000,A,4956.4958,N,03616.8914,E,24.24,181.34,100910,,,A*54
2010.09.10_20.22.32.566: $GPVTG,181.34,T,,M,24.24,N,44.91,K,A*3A
2010.09.10_20.22.33.528: $GPGGA,172232.000,4956.4890,N,03616.8910,E,1,10,1.15,119.8,M,17.0,M,,*61
2010.09.10_20.22.33.532: $GPGSA,A,3,18,19,22,26,21,06,03,16,24,15,,,2.03,1.15,1.67*00
2010.09.10_20.22.33.538: $GPGSV,4,1,13,18,71,105,44,06,63,284,40,22,55,193,43,21,53,080,44*7D
2010.0009.10_20.22.33.552: $GPGSV,4,2,13,03,48,296,42,16,33,230,35,37,31,199,30,24,28,268,28*77
2010.09.10_20.22.33.555: $GPGSV,4,3,13,15,25,058,34,19,18,306,36,26,13,031,30,29,05,135,*7A
2010.09.10_20.22.33.559: $GPGSV,4,4,13,08,03,353,*45
2010.09.10_20.22.33.568: $GPRMC,172232.000,A,4956.4890,N,03616.8910,E,24.13,180.42,100910,,,A*52
2010.09.10_20.22.33.572: $GPVTG,180.42,T,,M,24.13,N,44.70,K,A*31
2010.09.10_20.22.34.553: $GPGGA,172233.000,4956.4821,N,03616.8908,E,1,10,1.15,119.4,M,17.0,M,,*6F
2010.09.10_20.22.34.556: $GPGSA,A,3,18,19,22,26,21,06,03,16,24,15,,,2.03,1.15,1.67*00
2010.09.10_20.22.34.560: $GPGSV,4,1,13,18,71,105,44,06,63,284,40,22,55,193,44,21,53,080,44*7A
2010.09.10_20.22.34.574: $GPGSV,4,2,13,03,48,296,43,16,33,230,35,37,31,199,30,24,28,268,29*77
2010.09.10_20.22.34.577: $GPGSV,4,3,13,15,25,058,34,19,18,306,37,26,13,031,31,29,05,135,*7A
2010.09.10_20.22.34.581: $GPGSV,4,4,13,08,03,353,*45
2010.09.10_20.22.34.587: $GPRMC,172233.000,A,4956.4821,N,03616.8908,E,23.60,180.68,100910,,,A*5B
2010.09.10_20.22.34.591: $GPVTG,180.68,T,,M,23.60,N,43.73,K,A*3E
2010.09.10_20.22.35.543: $GPGGA,172234.000,4956.4755,N,03616.8906,E,1,10,1.15,119.1,M,17.0,M,,*6F
2010.09.10_20.22.35.556: $GPGSA,A,3,18,19,22,26,21,06,03,16,24,15,,,2.03,1.15,1.67*00
2010.09.10_20.22.35.561: $GPGSV,4,1,13,18,71,105,44,06,63,284,40,22,55,193,44,21,53,080,44*7A
2010.09.10_20.22.35.564: $GPGSV,4,2,13,03,48,296,44,16,33,230,35,39,29,194,,24,28,268,29*79
2010.09.10_20.22.35.569: $GPGSV,4,3,13,15,25,058,34,19,18,306,37,26,13,031,32,29,05,135,*79
2010.09.10_20.22.35.575: $GPGSV,4,4,13,08,03,353,*45
2010.09.10_20.22.35.583: $GPRMC,172234.000,A,4956.4755,N,03616.8906,E,23.57,179.21,100910,,,A*51
2010.09.10_20.22.35.587: $GPVTG,179.21,T,,M,23.57,N,43.68,K,A*3B
2010.09.10_20.22.36.498: $GPGGA,172235.000,4956.4691,N,03616.8904,E,1,10,1.15,118.5,M,17.0,M,,*60
2010.09.10_20.22.36.501: $GPGSA,A,3,18,19,22,26,21,06,03,16,24,15,,,2.03,1.15,1.67*00
2010.09.10_20.22.36.513: $GPGSV,4,1,13,18,71,105,44,06,63,284,40,22,55,193,44,21,53,080,43*7D
2010.09.10_20.22.36.521: $GPGSV,4,2,13,03,48,296,45,16,33,230,34,39,29,194,32,24,28,268,29*78
2010.09.10_20.22.36.525: $GPGSV,4,3,13,15,25,058,35,19,18,306,38,26,13,031,31,29,05,135,*74
2010.09.10_20.22.36.609: $GPGSV,4,4,13,08,03,353,*45
2010.09.10_20.22.36.613: $GPRMC,172235.000,A,4956.4691,N,03616.8904,E,23.34,177.98,100910,,,A*52
2010.09.10_20.22.36.617: $GPVTG,177.98,T,,M,23.34,N,43.26,K,A*38
2010.09.10_20.22.37.527: $GPGGA,172236.000,4956.4627,N,03616.8904,E,1,10,1.01,117.7,M,17.0,M,,*66
2010.09.10_20.22.37.538: $GPGSA,A,3,18,19,22,26,21,06,03,16,24,15,,,1.33,1.01,0.86*0B
2010.09.10_20.22.37.542: $GPGSV,4,1,13,18,71,105,43,06,63,284,40,22,55,193,43,21,53,080,42*7C
2010.09.10_20.22.37.554: $GPGSV,4,2,13,03,48,296,45,16,33,230,27,39,29,194,32,24,28,268,28*7B
2010.09.10_20.22.37.560: $GPGSV,4,3,13,15,25,058,33,19,18,306,38,26,13,031,30,29,05,135,*73
2010.09.10_20.22.37.563: $GPGSV,4,4,13,08,03,353,*45
2010.09.10_20.22.37.568: $GPRMC,172236.000,A,4956.4627,N,03616.8904,E,23.17,180.67,100910,,,A*55
2010.09.10_20.22.37.571: $GPVTG,180.67,T,,M,23.17,N,42.94,K,A*39
2010.09.10_20.22.38.508: $GPGGA,172237.000,4956.4562,N,03616.8911,E,1,10,1.15,116.2,M,17.0,M,,*60
2010.09.10_20.22.38.512: $GPGSA,A,3,18,19,22,26,21,06,03,16,24,15,,,2.03,1.15,1.67*00
2010.09.10_20.22.38.537: $GPGSV,4,1,13,18,71,105,43,06,63,284,40,22,55,193,43,21,53,080,43*7D
2010.09.10_20.22.38.544: $GPGSV,4,2,13,03,48,296,45,16,33,230,28,39,29,194,30,24,28,268,27*79
2010.09.10_20.22.38.562: $GPGSV,4,3,13,15,25,058,34,19,18,306,38,26,13,031,30,29,05,135,*74
2010.09.10_20.22.38.565: $GPGSV,4,4,13,08,03,353,*45
2010.09.10_20.22.38.576: $GPRMC,172237.000,A,4956.4562,N,03616.8911,E,22.34,179.35,100910,,,A*53
2010.09.10_20.22.38.590: $GPVTG,179.35,T,,M,22.34,N,41.40,K,A*32
2010.09.10_20.22.39.513: $GPGGA,172238.000,4956.4504,N,03616.8911,E,1,9,1.18,115.8,M,17.0,M,,*53
2010.09.10_20.22.39.516: $GPGSA,A,3,18,19,22,26,21,06,03,16,15,,,,2.09,1.18,1.72*05
2010.09.10_20.22.039.559: $GPGSV,4,1,13,18,71,105,42,06,63,284,39,22,55,193,44,21,53,080,43*75
2010.09.10_20.22.39.564: $GPGSV,4,2,13,03,48,296,45,16,33,230,29,39,29,194,32,24,28,268,26*7B
2010.09.10_20.22.39.568: $GPGSV,4,3,13,15,25,058,35,19,18,306,38,26,13,031,32,29,05,135,*77
2010.09.10_20.22.39.573: $GPGSV,4,4,13,08,03,353,*45
2010.09.10_20.22.39.581: $GPRMC,172238.000,A,4956.4504,N,03616.8911,E,20.26,180.13,100910,,,A*5F
2010.09.10_20.22.39.585: $GPVTG,180.13,T,,M,20.26,N,37.54,K,A*35
2010.09.10_20.22.40.553: $GPGGA,172239.000,4956.4449,N,03616.8910,E,1,10,1.01,115.4,M,17.0,M,,*67
2010.09.10_20.22.40.556: $GPGSA,A,3,18,19,22,26,21,06,03,16,24,15,,,1.33,1.01,0.86*0B
2010.09.10_20.22.40.566: $GPGSV,4,1,13,18,71,105,42,06,63,284,40,22,55,193,44,21,53,080,43*7B
2010.09.10_20.22.40.569: $GPGSV,4,2,13,03,48,296,38,16,33,230,30,39,29,194,29,24,28,268,27*72
2010.09.10_20.22.40.573: $GPGSV,4,3,13,15,25,058,33,19,18,306,37,26,13,031,23,29,05,135,*7E
2010.09.10_20.22.40.580: $GPGSV,4,4,13,08,03,353,*45
2010.09.10_20.22.40.587: $GPRMC,172239.000,A,4956.4449,N,03616.8910,E,19.96,183.74,100910,,,A*54
2010.09.10_20.22.40.591: $GPVTG,183.74,T,,M,19.96,N,36.99,K,A*36
2010.09.10_20.22.41.533: $GPGGA,172240.000,4956.4399,N,03616.8906,E,1,10,1.01,115.4,M,17.0,M,,*64
2010.09.10_20.22.41.537: $GPGSA,A,3,18,19,22,26,21,06,03,16,24,15,,,1.33,1.01,0.86*0B
2010.09.10_20.22.41.542: $GPGSV,4,1,13,18,71,105,33,06,63,284,40,22,55,193,44,21,53,080,41*7F
2010.09.10_20.22.41.546: $GPGSV,4,2,13,03,48,296,39,16,33,230,32,39,29,194,28,24,28,268,28*7F
2010.09.10_20.22.41.550: $GPGSV,4,3,13,15,25,058,33,19,18,306,30,26,13,031,25,29,05,135,*7F
2010.09.10_20.22.41.564: $GPGSV,4,4,13,08,03,353,*45
2010.09.10_20.22.41.568: $GPRMC,172240.000,A,4956.4399,N,03616.8906,E,18.23,181.90,100910,,,A*50
2010.09.10_20.22.41.572: $GPVTG,181.90,T,,M,18.23,N,33.78,K,A*3B
2010.09.10_20.22.42.498: $GPGGA,172241.000,4956.4354,N,03616.8906,E,1,10,1.15,115.2,M,17.0,M,,*67
2010.09.10_20.22.42.509: $GPGSA,A,3,18,19,22,26,21,06,03,16,24,15,,,2.03,1.15,1.67*00
2010.09.10_20.22.42.515: $GPGSV,4,1,13,18,71,105,41,06,63,284,40,22,55,193,44,21,53,080,40*7B
2010.09.10_20.22.42.519: $GPGSV,4,2,13,03,48,296,40,16,33,230,34,39,29,194,27,24,28,268,29*79
2010.09.10_20.22.42.522: $GPGSV,4,3,13,15,25,058,21,19,18,306,31,26,13,031,24,29,05,135,*7C
2010.09.10_20.22.42.532: $GPGSV,4,4,13,08,03,353,*45
2010.09.10_20.22.42.536: $GPRMC,172241.000,A,4956.4354,N,03616.8906,E,17.20,181.28,100910,,,A*5F
2010.09.10_20.22.42.541: $GPVTG,181.28,T,,M,17.20,N,31.88,K,A*39
2010.09.10_20.22.43.563: $GPGGA,172242.000,4956.4303,N,03616.8908,E,1,9,1.20,112.4,M,17.0,M,,*57
2010.09.10_20.22.43.566: $GPGSA,A,3,18,19,22,21,06,03,16,24,15,,,,2.19,1.20,1.84*04
2010.09.10_20.22.43.571: $GPGSV,4,1,13,18,71,105,41,06,63,284,41,22,55,193,44,21,53,080,39*74
2010.09.10_20.22.43.574: $GPGSV,4,2,13,03,48,296,42,16,33,230,34,39,29,194,27,24,28,268,29*7B
2010.09.10_20.22.43.589: $GPGSV,4,3,13,15,25,058,38,19,18,306,40,26,13,031,23,29,05,135,*75
2010.09.10_20.22.43.592: $GPGSV,4,4,13,08,03,353,*45
2010.09.10_20.22.43.596: $GPRMC,172242.000,A,4956.4303,N,03616.8908,E,17.02,178.97,100910,,,A*52
2010.09.10_20.22.43.600: $GPVTG,178.97,T,,M,17.02,N,31.54,K,A*3A
2010.09.10_20.22.44.533: $GPGGA,172243.000,4956.4255,N,03616.8901,E,1,10,1.15,112.5,M,17.0,M,,*62
2010.09.10_20.22.44.537: $GPGSA,A,3,18,19,22,26,21,06,03,16,24,15,,,2.03,1.15,1.67*00
2010.09.10_20.22.44.542: $GPGSV,4,1,13,18,71,105,41,06,63,284,41,22,55,193,44,21,53,080,39*74
2010.09.10_20.22.44.553: $GPGSV,4,2,13,03,48,296,42,16,33,230,34,39,29,194,27,24,28,268,29*7B
2010.09.10_20.22.44.560: $GPGSV,4,3,13,15,25,058,38,19,18,306,40,26,13,031,34,29,05,135,*73
2010.09.10_20.22.44.563: $GPGSV,4,4,13,08,03,353,*45
2010.09.10_20.22.44.567: $GPRMC,172243.000,A,4956.4255,N,03616.8901,E,16.33,179.31,100910,,,A*56
2010.09.10_20.22.44.572: $GPVTG,179.31,T,,M,16.33,N,30.26,K,A*30
2010.09.10_20.22.45.498: $GPGGA,172244.000,4956.4213,N,03616.8899,E,1,10,1.15,112.2,M,17.0,M,,*60
2010.09.10_20.22.45.509: $GPGSA,A,3,18,19,22,26,21,06,03,16,24,15,,,2.03,1.15,1.67*00
2010.09.10_20.22.45.516: $GPGSV,4,1,13,18,71,105,41,06,64,283,40,22,55,193,43,21,53,080,40*7C
2010.09.10_20.22.45.519: $GPGSV,4,2,13,03,48,296,35,16,33,230,33,39,29,194,27,24,28,268,30*74
2010.09.10_20.22.45.524: $GPGSV,4,3,13,15,25,058,39,19,18,306,40,26,13,031,33,29,05,135,*75
2010.09.10_20.22.45.534: $GPGSV,4,4,13,08,03,353,*45
2010.09.10_20.22.45.538: $GPRMC,172244.000,A,4956.4213,N,03616.8899,E,15.00,180.97,100910,,,A*5A
2010.09.10_20.22.45.542: $GPVTG,180.97,T,,M,15.00,N,27.80,K,A*33
2010.09.10_20.22.46.534: $GPGGA,172245.000,4956.4182,N,03616.8907,E,1,10,1.15,114.7,M,17.0,M,,*6F
2010.09.10_20.22.46.538: $GPGSA,A,3,18,19,22,26,21,06,03,16,24,15,,,2.03,1.15,1.67*00
2010.09.10_20.22.46.542: $GPGSV,4,1,13,18,71,105,41,06,64,283,40,22,55,193,43,21,53,080,41*7D
2010.09.10_20.22.46.559: $GPGSV,4,2,13,03,48,296,36,16,33,230,41,39,29,194,27,24,28,268,30*72
2010.09.10_20.22.46.565: $GPGSV,4,3,13,15,25,058,29,19,18,306,33,26,13,031,31,29,05,135,*72
2010.09.10_20.22.46.568: $GPGSV,4,4,13,08,03,353,*45
2010.09.10_20.22.46.574: $GPRMC,172245.000,A,4956.4182,N,03616.8907,E,13.87,182.80,100910,,,A*5B
2010.09.10_20.22.46.578: $GPVTG,182.80,T,,M,13.87,N,25.69,K,A*3B
2010.09.10_20.22.47.533: $GPGGA,172246.000,4956.4155,N,03616.8913,E,1,10,1.15,117.1,M,17.0,M,,*66
2010.09.10_20.22.47.541: $GPGSA,A,3,18,19,22,26,21,06,03,16,24,15,,,2.03,1.15,1.67*00
2010.09.10_20.22.47.560: $GPGSV,4,1,13,18,71,105,41,06,64,283,39,22,55,193,43,21,53,080,41*73
2010.09.10_20.22.47.576: $GPGSV,4,2,13,03,48,296,37,16,33,230,40,39,29,194,27,24,28,268,38*7A
2010.09.10_20.22.47.580: $GPGSV,4,3,13,15,25,058,27,19,18,306,32,26,13,031,29,29,05,135,*74
2010.09.10_20.22.47.583: $GPGSV,4,4,13,08,03,353,*45
2010.09.10_20.22.47.593: $GPRMC,172246.000,A,4956.4155,N,03616.8913,E,12.99,182.04,100910,,,A*55
2010.09.10_20.22.47.611: $GPVTG,182.04,T,,M,12.99,N,24.08,K,A*3F
2010.09.10_20.22.48.493: $GPGGA,172247.000,4956.4121,N,03616.8912,E,1,10,1.01,116.7,M,17.0,M,,*67
2010.09.10_20.22.48.496: $GPGSA,A,3,18,19,22,26,21,06,03,16,24,15,,,1.33,1.01,0.86*0B
2010.09.10_20.22.48.500: $GPGSV,4,1,13,18,71,105,41,06,64,283,39,22,55,193,43,21,53,080,41*73
2010.09.10_20.22.48.504: $GPGSV,4,2,13,03,48,296,35,16,33,230,26,39,29,194,27,24,28,268,28*79
2010.09.10_20.22.48.528: $GPGSV,4,3,13,15,25,058,29,19,18,306,32,26,13,031,28,29,05,135,*7B
2010.09.10_20.22.48.538: $GPGSV,4,4,13,08,03,353,*45
2010.09.10_20.22.48.546: $GPRMC,172247.000,A,4956.4121,N,03616.8912,E,12.51,176.96,100910,,,A*52
2010.09.10_20.22.48.687: $GPVTG,176.96,T,,M,12.51,N,23.18,K,A*3D
2010.09.10_20.22.49.533: $GPGGA,172248.000,4956.4086,N,03616.8917,E,1,10,1.01,116.4,M,17.0,M,,*62
2010.09.10_20.22.49.537: $GPGSA,A,3,18,19,22,26,21,06,03,16,24,15,,,1.33,1.01,0.86*0B
2010.09.10_20.22.49.550: $GPGSV,4,1,13,18,71,105,41,06,64,283,39,22,55,193,43,21,53,080,40*72
2010.09.10_20.22.49.555: $GPGSV,4,2,13,03,48,296,37,16,33,230,25,24,28,268,27,44,26,143,*7D
2010.09.10_20.22.49.559: $GPGSV,4,3,13,15,25,058,29,19,18,306,32,26,13,031,27,29,05,135,*74
2010.09.10_20.22.49.564: $GPGSV,4,4,13,08,03,353,*45
2010.09.10_20.22.49.568: $GPRMC,172248.000,A,4956.4086,N,03616.8917,E,13.62,172.59,100910,,,A*52
2010.09.10_20.22.49.571: $GPVTG,172.59,T,,M,13.62,N,25.23,K,A*35
2010.09.10_20.22.50.529: $GPGGA,172249.000,4956.4047,N,03616.8921,E,1,10,1.01,117.1,M,17.0,M,,*6F
2010.09.10_20.22.50.532: $GPGSA,A,3,18,19,22,26,21,06,03,16,24,15,,,1.33,1.01,0.86*0B
2010.09.10_20.22.50.544: $GPGSV,4,1,13,18,71,105,41,06,64,283,39,22,55,193,42,21,53,080,38*7C
2010.09.10_20.22.50.550: $GPGSV,4,2,13,03,48,296,37,16,33,230,27,24,28,268,27,44,26,143,*7F
2010.09.10_20.22.50.554: $GPGSV,4,3,13,15,25,058,38,19,18,306,31,26,13,031,26,29,05,135,*76
2010.09.10_20.22.50.558: $GPGSV,4,4,13,08,03,353,*45
2010.09.10_20.22.50.561: $GPRMC,172249.000,A,4956.4047,N,03616.8921,E,13.76,166.75,100910,,,A*55
2010.09.10_20.22.50.567: $GPVTG,166.75,T,,M,13.76,N,25.50,K,A*3F
2010.09.10_20.22.51.488: $GPGGA,172250.000,4956.4009,N,03616.8938,E,1,9,1.20,117.1,M,17.0,M,,*5E
2010.09.10_20.22.51.491: $GPGSA,A,3,18,19,22,21,06,03,16,24,15,,,,2.19,1.20,1.84*04
2010.09.10_20.22.51.495: $GPGSV,4,1,13,18,71,105,41,06,64,283,41,22,55,193,42,21,53,080,38*73
2010.09.10_20.22.51.500: $GPGSV,4,2,13,03,48,296,48,16,33,230,27,24,28,268,29,44,26,143,*79
2010.09.10_20.22.51.515: $GPGSV,4,3,13,15,25,058,36,19,18,306,30,26,13,031,24,29,05,135,*7B
2010.09.10_20.22.51.519: $GPGSV,4,4,13,08,03,353,*45
2010.09.10_20.22.51.523: $GPRMC,172250.000,A,4956.4009,N,03616.8938,E,13.76,159.92,100910,,,A*5A
2010.09.10_20.22.51.527: $GPVTG,159.92,T,,M,13.76,N,25.49,K,A*32
2010.09.10_20.22.52.544: $GPGGA,172251.000,4956.3973,N,03616.8967,E,1,8,1.22,117.5,M,17.0,M,,*51
2010.09.10_20.22.52.547: $GPGSA,A,3,18,19,22,21,06,03,16,15,,,,,2.26,1.22,1.90*09
2010.09.10_20.22.52.560: $GPGSV,4,1,13,18,71,105,42,06,64,283,42,22,55,193,28,21,53,080,38*7F
2010.09.10_20.22.52.565: $GPGSV,4,2,13,03,48,296,48,16,33,230,28,24,28,268,29,44,26,143,*76
2010.09.10_20.22.52.568: $GPGSV,4,3,13,15,25,058,35,19,18,306,37,26,13,031,25,29,05,135,*7E
2010.09.10_20.22.52.574: $GPGSV,4,4,13,08,03,353,*45
2010.09.10_20.22.52.582: $GPRMC,172251.000,A,4956.3973,N,03616.8967,E,14.19,148.72,100910,,,A*52
2010.09.10_20.22.52.586: $GPVTG,148.72,T,,M,14.19,N,26.29,K,A*37
2010.09.10_20.22.53.533: $GPGGA,172252.000,4956.3950,N,03616.9006,E,1,9,1.20,117.7,M,17.0,M,,*5D
2010.09.10_20.22.53.542: $GPGSA,A,3,18,19,22,21,06,03,16,24,15,,,,2.19,1.20,1.84*04
2010.09.10_20.22.0053.567: $GPGSV,4,1,13,18,71,105,41,06,64,283,44,22,55,193,35,21,53,080,39*77
2010.09.10_20.22.53.569: $GPGSV,4,2,13,03,48,296,47,16,33,230,37,24,28,268,43,44,26,143,*7B
2010.09.10_20.22.53.573: $GPGSV,4,3,13,15,25,058,34,19,18,306,25,26,13,031,24,29,05,135,*7D
2010.09.10_20.22.53.576: $GPGSV,4,4,13,08,03,353,*45
2010.09.10_20.22.53.585: $GPRMC,172252.000,A,4956.3950,N,03616.9006,E,13.17,132.48,100910,,,A*52
2010.09.10_20.22.53.597: $GPVTG,132.48,T,,M,13.17,N,24.40,K,A*37
2010.09.10_20.22.54.484: $GPGGA,172253.000,4956.3930,N,03616.9056,E,1,10,1.15,116.6,M,17.0,M,,*61
2010.09.10_20.22.54.488: $GPGSA,A,3,18,19,22,26,21,06,03,16,24,15,,,2.03,1.15,1.67*00
2010.09.10_20.22.54.497: $GPGSV,4,1,13,18,71,105,32,06,64,283,44,22,55,193,35,21,53,080,29*72
2010.09.10_20.22.54.500: $GPGSV,4,2,13,03,48,296,46,16,33,230,37,24,28,268,44,44,26,143,*7D
2010.09.10_20.22.54.504: $GPGSV,4,3,13,15,25,058,41,19,18,306,32,26,13,031,24,29,05,135,*79
2010.09.10_20.22.54.523: $GPGSV,4,4,13,08,03,353,*45
2010.09.10_20.22.54.526: $GPRMC,172253.000,A,4956.3930,N,03616.9056,E,12.90,116.33,100910,,,A*54
2010.09.10_20.22.54.530: $GPVTG,116.33,T,,M,12.90,N,23.90,K,A*39
2010.09.10_20.22.55.538: $GPGGA,172254.000,4956.3933,N,03616.9110,E,1,9,1.21,117.7,M,17.0,M,,*59
2010.09.10_20.22.55.542: $GPGSA,A,3,18,19,22,26,21,06,03,16,24,,,,2.12,1.21,1.74*01
2010.09.10_20.22.55.554: $GPGSV,4,1,13,18,71,105,34,06,64,283,42,22,55,193,37,21,53,080,39*71
2010.09.10_20.22.55.560: $GPGSV,4,2,13,03,48,296,45,16,32,230,47,37,31,199,,24,28,268,42*7B
2010.09.10_20.22.55.564: $GPGSV,4,3,13,15,25,058,,19,18,306,33,26,13,031,25,29,05,135,*7C
2010.09.10_20.22.55.567: $GPGSV,4,4,13,08,03,353,*45
2010.09.10_20.22.55.581: $GPRMC,172254.000,A,4956.3933,N,03616.9110,E,12.45,97.35,100910,,,A*65
2010.09.10_20.22.55.585: $GPVTG,97.35,T,,M,12.45,N,23.06,K,A*00
2010.09.10_20.22.56.573: $GPGGA,172255.000,4956.3939,N,03616.9167,E,1,10,1.01,118.7,M,17.0,M,,*67
2010.09.10_20.22.56.576: $GPGSA,A,3,18,19,22,26,21,06,03,16,24,15,,,1.33,1.01,0.86*0B
2010.09.0010_20.22.56.611: $GPGSV,4,1,13,18,71,105,35,06,64,283,30,22,55,193,39,21,53,080,40*75
2010.09.10_20.22.56.615: $GPGSV,4,2,13,03,48,296,38,16,32,230,46,37,31,199,31,24,28,268,33*74
2010.09.10_20.22.56.619: $GPGSV,4,3,13,15,25,058,28,19,18,306,31,26,13,031,25,29,05,135,*74
2010.09.10_20.22.56.622: $GPGSV,4,4,13,08,03,353,*45
2010.09.10_20.22.56.629: $GPRMC,172255.000,A,4956.3939,N,03616.9167,E,13.12,92.78,100910,,,A*61
2010.09.10_20.22.56.633: $GPVTG,92.78,T,,M,13.12,N,24.31,K,A*0C
2010.09.10_20.22.57.495: $GPGGA,172256.000,4956.3944,N,03616.9225,E,1,9,1.06,119.3,M,17.0,M,,*51
2010.09.10_20.22.57.534: $GPGSA,A,3,18,19,22,26,21,06,03,16,24,,,,1.37,1.06,0.87*0D
2010.09.10_20.22.57.548: $GPGSV,4,1,13,18,71,104,36,06,64,283,32,22,55,193,40,21,53,080,40*7B
2010.09.10_20.22.57.558: $GPGSV,4,2,13,03,48,296,38,16,32,230,46,37,31,199,30,24,28,268,33*75
2010.09.10_20.22.57.566: $GPGSV,4,3,13,15,25,058,26,19,18,306,32,26,13,031,24,29,05,135,*78
2010.09.10_20.22.57.570: $GPGSV,4,4,13,08,03,353,*45
2010.09.10_20.22.57.574: $GPRMC,172256.000,A,4956.3944,N,03616.9225,E,13.12,93.62,100910,,,A*67
2010.09.10_20.22.57.578: $GPVTG,93.62,T,,M,13.12,N,24.31,K,A*06
2010.09.10_20.22.58.539: $GPGGA,172257.000,4956.3944,N,03616.9280,E,1,9,1.06,119.6,M,17.0,M,,*5A
2010.09.10_20.22.58.542: $GPGSA,A,3,18,19,22,26,21,06,03,16,24,,,,1.37,1.06,0.87*0D
2010.09.10_20.22.58.546: $GPGSV,4,1,13,18,71,104,36,06,64,283,32,22,55,193,41,21,53,080,40*7A
2010.09.10_20.22.58.550: $GPGSV,4,2,13,03,48,296,38,16,32,230,45,37,31,199,30,24,28,268,34*71
2010.09.10_20.22.58.568: $GPGSV,4,3,13,15,25,058,26,19,19,306,25,26,13,031,23,29,05,135,*78
2010.09.10_20.22.58.572: $GPGSV,4,4,13,08,03,353,*45
2010.09.10_20.22.58.576: $GPRMC,172257.000,A,4956.3944,N,03616.9280,E,12.46,95.28,100910,,,A*61
2010.09.10_20.22.58.580: $GPVTG,95.28,T,,M,12.46,N,23.10,K,A*0A
2010.09.10_20.22.59.534: $GPGGA,172258.000,4956.3937,N,03616.9326,E,1,9,1.25,121.1,M,17.0,M,,*51
2010.09.10_20.22.59.538: $GPGSA,A,3,18,22,26,21,06,03,16,24,15,,,,2.10,1.25,1.69*07
2010.09.10_20.22.59.551: $GPGSV,4,1,13,18,71,104,35,06,64,283,32,22,55,193,42,21,53,080,40*7A
2010.09.10_20.22.59.555: $GPGSV,4,2,13,03,48,296,39,16,32,230,45,37,31,199,30,24,28,268,34*70
2010.09.10_20.22.59.559: $GPGSV,4,3,13,15,25,058,28,19,19,306,23,26,13,031,37,29,05,135,*75
2010.09.10_20.22.59.563: $GPGSV,4,4,13,08,03,353,*45
2010.09.10_20.22.59.567: $GPRMC,172258.000,A,4956.3937,N,03616.9326,E,11.85,97.67,100910,,,A*62
2010.09.10_20.22.59.575: $GPVTG,97.67,T,,M,11.85,N,21.96,K,A*03
2010.09.10_20.23.00.488: $GPGGA,172259.000,4956.3933,N,03616.9373,E,1,10,1.15,121.2,M,17.0,M,,*6C
2010.09.10_20.23.00.491: $GPGSA,A,3,18,19,22,26,21,06,03,16,24,15,,,2.03,1.15,1.67*00
2010.09.10_20.23.00.517: $GPGSV,4,1,13,18,71,104,34,06,64,283,32,22,55,193,43,21,53,081,40*7B
2010.09.10_20.23.00.520: $GPGSV,4,2,13,03,48,296,40,16,32,230,45,37,31,199,30,24,28,268,34*7E
2010.09.10_20.23.00.525: $GPGSV,4,3,13,15,25,058,27,19,19,306,24,26,13,031,29,29,05,135,*72
2010.09.10_20.23.00.528: $GPGSV,4,4,13,08,03,353,*45
2010.09.10_20.23.00.532: $GPRMC,172259.000,A,4956.3933,N,03616.9373,E,9.85,98.00,100910,,,A*50
2010.09.10_20.23.00.541: $GPVTG,98.00,T,,M,9.85,N,18.24,K,A*37
2010.09.10_20.23.01.603: $GPGGA,172300.000,4956.3932,N,03616.9413,E,1,9,1.16,121.5,M,17.0,M,,*5D
2010.09.10_20.23.01.607: $GPGSA,A,3,18,22,26,21,06,03,16,24,15,,,,1.44,1.16,0.86*05
2010.09.10_20.23.01.611: $GPGSV,4,1,13,18,71,104,34,06,64,283,33,22,55,193,43,21,53,081,40*7A
2010.09.10_20.23.01.615: $GPGSV,4,2,13,03,48,296,39,16,32,230,45,37,31,199,29,24,28,268,33*7F
2010.09.10_20.23.01.639: $GPGSV,4,3,13,15,25,058,30,19,19,306,24,26,13,031,29,29,05,135,*74
2010.09.10_20.23.01.643: $GPGSV,4,4,13,08,03,353,*45
2010.09.10_20.23.01.652: $GPRMC,172300.000,A,4956.3932,N,03616.9413,E,8.88,91.82,100910,,,A*52
2010.09.10_20.23.01.660: $GPVTG,91.82,T,,M,8.88,N,16.46,K,A*32
2010.09.10_20.23.02.548: $GPGGA,172301.000,4956.3940,N,03616.9449,E,1,10,1.15,122.5,M,17.0,M,,*6E
2010.09.10_20.23.02.552: $GPGSA,A,3,18,19,22,26,21,06,03,16,24,15,,,2.03,1.15,1.67*00
2010.09.10_20.23.02.556: $GPGSV,4,1,13,18,71,104,35,06,64,283,44,22,55,193,43,21,53,081,40*7B
2010.09.10_20.23.02.560: $GPGSV,4,2,13,03,48,296,39,16,32,230,45,37,31,199,29,24,28,268,34*78
2010.09.10_20.23.02.573: $GPGSV,4,3,13,15,25,058,31,19,19,306,25,26,13,031,28,29,05,135,*75
2010.09.10_20.23.02.577: $GPGSV,4,4,13,08,03,353,*45
2010.09.10_20.23.02.583: $GPRMC,172301.000,A,4956.3940,N,03616.9449,E,8.44,70.45,100910,,,A*5D
2010.09.10_20.23.02.587: $GPVTG,70.45,T,,M,8.44,N,15.65,K,A*34
2010.09.10_20.23.03.522: $GPGGA,172302.000,4956.3952,N,03616.9479,E,1,10,1.15,122.7,M,17.0,M,,*6F
2010.09.10_20.23.003.534: $GPGSA,A,3,18,19,22,26,21,06,03,16,24,15,,,2.03,1.15,1.66*01
2010.09.10_20.23.03.540: $GPGSV,4,1,13,18,71,104,33,06,64,283,43,22,55,193,45,21,53,081,41*7D
2010.09.10_20.23.03.545: $GPGSV,4,2,13,03,48,296,38,16,32,230,35,37,31,199,42,24,28,269,33*75
2010.09.10_20.23.03.548: $GPGSV,4,3,13,15,25,058,33,19,19,306,33,26,13,031,26,29,05,135,*7E
2010.09.10_20.23.03.565: $GPGSV,4,4,13,08,03,353,*45
2010.09.10_20.23.03.573: $GPRMC,172302.000,A,4956.3952,N,03616.9479,E,7.20,61.24,100910,,,A*54
2010.09.10_20.23.03.577: $GPVTG,61.24,T,,M,7.20,N,13.35,K,A*3D
2010.09.10_20.23.04.518: $GPGGA,172303.000,4956.3965,N,03616.9503,E,1,10,1.15,122.4,M,17.0,M,,*65
2010.09.10_20.23.04.538: $GPGSA,A,3,18,19,22,26,21,06,03,16,24,15,,,2.03,1.15,1.66*01
2010.09.10_20.23.04.542: $GPGSV,4,1,13,18,71,104,33,06,64,283,43,22,55,193,46,21,53,081,32*7A
2010.09.10_20.23.04.545: $GPGSV,4,2,13,03,48,296,37,16,32,230,37,37,31,199,35,24,28,269,31*7A
2010.09.10_20.23.04.549: $GPGSV,4,3,13,15,25,058,34,19,19,306,31,26,13,031,25,29,05,135,*78
2010.09.10_20.23.04.562: $GPGSV,4,4,13,08,03,353,*45
2010.09.10_20.23.04.566: $GPRMC,172303.000,A,4956.3965,N,03616.9503,E,6.16,28.74,100910,,,A*51
2010.09.10_20.23.04.570: $GPVTG,28.74,T,,M,6.16,N,11.42,K,A*33
2010.09.10_20.23.05.563: $GPGGA,172304.000,4956.3980,N,03616.9520,E,1,9,1.10,122.7,M,17.0,M,,*56
2010.09.10_20.23.05.573: $GPGSA,A,3,18,19,22,21,06,03,16,24,15,,,,1.41,1.10,0.88*04
2010.09.10_20.23.05.576: $GPGSV,4,1,13,18,71,104,34,06,64,283,44,22,55,193,47,21,53,081,40*7E
2010.09.10_20.23.05.590: $GPGSV,4,2,13,03,48,296,38,16,32,230,28,39,29,194,,24,28,269,32*74
2010.09.10_20.23.05.594: $GPGSV,4,3,13,15,25,058,35,19,19,306,31,26,12,030,18,29,05,135,*77
2010.09.10_20.23.05.598: $GPGSV,4,4,13,08,03,353,*45
2010.09.10_20.23.05.601: $GPRMC,172304.000,A,4956.3980,N,03616.9520,E,5.78,28.10,100910,,,A*55
2010.09.10_20.23.05.608: $GPVTG,28.10,T,,M,5.78,N,10.70,K,A*3A
2010.09.10_20.23.06.483: $GPGGA,172305.000,4956.3987,N,03616.9538,E,1,9,1.20,122.3,M,17.0,M,,*5E
2010.09.10_20.23.06.487: $GPGSA,A,3,18,19,22,21,06,03,16,24,15,,,,2.19,1.20,1.84*04
2010.09.10_20.23.06.497: $GPGSV,4,1,13,18,71,104,33,06,64,283,44,22,55,193,46,21,53,081,39*76
2010.09.10_20.23.06.499: $GPGSV,4,2,13,03,48,296,38,16,32,230,41,39,29,194,,24,28,269,34*7D
2010.09.10_20.23.06.505: $GPGSV,4,3,13,15,25,058,35,19,19,306,29,26,12,030,18,29,05,135,*7E
2010.09.10_20.23.06.508: $GPGSV,4,4,13,08,03,353,*45
2010.09.10_20.23.06.512: $GPRMC,172305.000,A,4956.3987,N,03616.9538,E,4.36,16.16,100910,,,A*5A
2010.09.10_20.23.06.520: $GPVTG,16.16,T,,M,4.36,N,8.07,K,A*03
2010.09.10_20.23.07.553: $GPGGA,172306.000,4956.3997,N,03616.9542,E,1,8,1.33,122.1,M,17.0,M,,*50
2010.09.10_20.23.07.556: $GPGSA,A,3,18,22,21,06,03,16,24,15,,,,,2.37,1.33,1.96*01
2010.09.10_20.23.07.567: $GPGSV,4,1,13,18,71,104,32,06,64,283,44,22,55,193,45,21,53,081,40*7A
2010.09.10_20.23.07.574: $GPGSV,4,2,13,03,48,296,38,16,32,230,39,39,29,194,,24,28,269,36*70
2010.09.10_20.23.07.577: $GPGSV,4,3,13,15,25,058,25,19,19,306,17,26,12,030,18,29,05,135,*72
2010.09.10_20.23.07.581: $GPGSV,4,4,13,08,03,353,*45
2010.09.10_20.23.07.585: $GPRMC,172306.000,A,4956.3997,N,03616.9542,E,4.62,11.04,100910,,,A*50
2010.09.10_20.23.07.589: $GPVTG,11.04,T,,M,4.62,N,8.56,K,A*02
2010.09.10_20.23.08.548: $GPGGA,172307.000,4956.4006,N,03616.9547,E,1,10,1.15,121.6,M,17.0,M,,*6B
2010.09.10_20.23.08.552: $GPGSA,A,3,18,19,22,26,21,06,03,16,24,15,,,2.03,1.15,1.67*00
2010.09.10_20.23.08.556: $GPGSV,4,1,13,18,71,104,32,06,64,283,44,22,55,193,43,21,53,081,41*7D
2010.09.10_20.23.08.571: $GPGSV,4,2,13,03,48,296,37,16,32,230,37,39,29,194,,24,28,269,35*72
2010.09.10_20.23.08.574: $GPGSV,4,3,13,15,25,058,32,19,19,306,19,26,12,030,25,29,05,135,*74
2010.09.10_20.23.08.578: $GPGSV,4,4,13,08,03,353,*45
2010.09.10_20.23.08.582: $GPRMC,172307.000,A,4956.4006,N,03616.9547,E,4.19,12.52,100910,,,A*5E
2010.09.10_20.23.08.589: $GPVTG,12.52,T,,M,4.19,N,7.75,K,A*00
2010.09.10_20.23.09.521: $GPGGA,172308.000,4956.4014,N,03616.9554,E,1,10,1.15,121.4,M,17.0,M,,*67
2010.09.10_20.23.09.530: $GPGSA,A,3,18,19,22,26,21,06,03,16,24,15,,,2.03,1.15,1.66*01
2010.09.10_20.23.09.545: $GPGSV,4,1,13,18,71,104,32,06,64,283,44,22,55,193,43,21,53,081,41*7D
2010.09.10_20.23.09.558: $GPGSV,4,2,13,03,48,296,37,16,32,230,37,39,29,194,31,24,28,269,26*72
2010.09.10_20.23.09.564: $GPGSV,4,3,13,15,25,058,31,19,19,306,21,26,12,030,25,29,05,135,*7C
2010.09.10_20.23.09.577: $GPGSV,4,4,13,08,03,353,*45
2010.09.10_20.23.09.588: $GPRMC,172308.000,A,4956.4014,N,03616.9554,E,4.15,14.69,100910,,,A*52
2010.09.10_20.23.09.605: $GPVTG,14.69,T,,M,4.15,N,7.69,K,A*0F
2010.09.10_20.23.10.528: $GPGGA,172309.000,4956.4022,N,03616.9556,E,1,10,1.15,121.7,M,17.0,M,,*62
2010.09.10_20.23.10.532: $GPGSA,A,3,18,19,22,26,21,06,03,16,24,15,,,2.02,1.15,1.66*00
2010.09.10_20.23.10.557: $GPGSV,4,1,13,18,71,104,32,06,64,283,43,22,55,193,42,21,53,081,42*78
2010.09.10_20.23.10.560: $GPGSV,4,2,13,03,48,296,37,16,32,230,36,39,29,194,30,24,28,269,26*72
2010.09.10_20.23.10.563: $GPGSV,4,3,13,15,25,058,32,19,19,306,21,26,12,030,24,29,05,135,*7E
2010.09.10_20.23.10.567: $GPGSV,4,4,13,08,03,353,*45
2010.09.10_20.23.10.575: $GPRMC,172309.000,A,4956.4022,N,03616.9556,E,3.61,15.82,100910,,,A*54
2010.09.10_20.23.10.579: $GPVTG,15.82,T,,M,3.61,N,6.68,K,A*0F
2010.09.10_20.23.11.529: $GPGGA,172310.000,4956.4034,N,03616.9553,E,1,10,1.01,121.1,M,17.0,M,,*6B
2010.09.10_20.23.11.536: $GPGSA,A,3,18,19,22,26,21,06,03,16,24,15,,,1.33,1.01,0.86*0B
2010.09.10_20.23.11.541: $GPGSV,4,1,13,18,71,104,32,06,64,283,43,22,55,193,42,21,53,081,42*78
2010.09.10_20.23.11.557: $GPGSV,4,2,13,03,48,296,37,16,32,230,35,39,29,194,30,24,28,269,28*7F
2010.09.10_20.23.11.559: $GPGSV,4,3,13,15,25,058,32,19,19,306,36,26,12,030,24,29,05,135,*78
2010.09.10_20.23.11.563: $GPGSV,4,4,13,08,03,353,*45
2010.09.10_20.23.11.566: $GPRMC,172310.000,A,4956.4034,N,03616.9553,E,3.04,8.55,100910,,,A*6B
2010.09.10_20.23.11.575: $GPVTG,8.55,T,,M,3.04,N,5.63,K,A*32
2010.09.10_20.23.12.498: $GPGGA,172311.000,4956.4040,N,03616.9547,E,1,10,1.15,121.7,M,17.0,M,,*6F
2010.09.10_20.23.12.509: $GPGSA,A,3,18,19,22,26,21,06,03,16,24,15,,,2.02,1.15,1.66*00
2010.09.10_20.23.12.515: $GPGSV,4,1,13,18,71,104,34,06,64,283,43,22,55,193,42,21,53,081,41*7D
2010.09.10_20.23.12.519: $GPGSV,4,2,13,03,48,296,37,16,32,230,34,39,29,194,28,24,28,269,29*76
2010.09.10_20.23.12.525: $GPGSV,4,3,13,15,25,058,33,19,19,306,36,26,12,030,26,29,05,135,*7B
2010.09.10_20.23.12.535: $GPGSV,4,4,13,08,03,353,*45
2010.09.10_20.23.12.538: $GPRMC,172311.000,A,4956.4040,N,03616.9547,E,2.45,359.23,100910,,,A*6E
2010.09.10_20.23.12.542: $GPVTG,359.23,T,,M,2.45,N,4.53,K,A*32
2010.09.10_20.23.13.634: $GPGGA,172312.000,4956.4049,N,03616.9536,E,1,9,1.20,123.0,M,17.0,M,,*58
2010.09.10_20.23.13.638: $GPGSA,A,3,18,19,22,21,06,03,16,24,15,,,,2.19,1.20,1.84*04
2010.09.10_20.23.13.642: $GPGSV,4,1,13,18,71,104,41,06,64,283,42,22,55,193,42,21,53,081,40*7F
2010.09.10_20.23.13.646: $GPGSV,4,2,13,03,48,296,44,16,32,230,33,39,29,194,27,24,28,269,30*72
2010.09.10_20.23.13.650: $GPGSV,4,3,13,15,25,058,35,19,19,306,36,26,12,030,24,29,05,135,*7F
2010.09.10_20.23.13.664: $GPGSV,4,4,13,08,03,353,*45
2010.09.10_20.23.13.667: $GPRMC,172312.000,A,4956.4049,N,03616.9536,E,2.03,359.23,100910,,,A*60
2010.09.10_20.23.13.674: $GPVTG,359.23,T,,M,2.03,N,3.77,K,A*31
2010.09.10_20.23.14.524: $GPGGA,172313.000,4956.4060,N,03616.9536,E,1,9,1.20,123.7,M,17.0,M,,*55
2010.09.10_20.23.14.527: $GPGSA,A,3,18,19,22,21,06,03,16,24,15,,,,2.19,1.20,1.84*04
2010.09.10_20.23.14.531: $GPGSV,4,1,13,18,71,104,41,06,64,283,41,22,55,193,42,21,53,081,32*79
2010.09.10_20.23.14.535: $GPGSV,4,2,13,03,49,295,44,16,32,230,33,39,29,194,27,24,28,269,32*72
2010.09.10_20.23.14.549: $GPGSV,4,3,13,15,25,058,34,19,19,306,36,26,12,030,23,29,05,135,*79
2010.09.10_20.23.14.553: $GPGSV,4,4,13,08,03,353,*45
2010.09.10_20.23.14.557: $GPRMC,172313.000,A,4956.4060,N,03616.9536,E,2.74,357.10,100910,,,A*64
2010.09.10_20.23.14.565: $GPVTG,357.10,T,,M,2.74,N,5.07,K,A*3E
2010.09.10_20.23.15.488: $GPGGA,172314.000,4956.4064,N,03616.9534,E,1,9,1.20,123.5,M,17.0,M,,*56
2010.09.10_20.23.15.491: $GPGSA,A,3,18,19,22,21,06,03,16,24,15,,,,2.19,1.20,1.84*04
2010.09.10_20.23.15.522: $GPGSV,4,1,13,18,71,104,41,06,64,283,41,22,55,193,42,21,53,081,31*7A
2010.09.10_20.23.15.526: $GPGSV,4,2,13,03,49,295,44,16,32,230,25,39,29,194,29,24,28,269,33*7A
2010.09.10_20.23.15.529: $GPGSV,4,3,13,15,25,058,32,19,19,306,35,26,12,030,23,29,05,135,*7C
2010.09.10_20.23.15.536: $GPGSV,4,4,13,08,03,353,*45
2010.09.10_20.23.15.542: $GPRMC,172314.000,A,4956.4064,N,03616.9534,E,1.90,357.10,100910,,,A*6C
2010.09.10_20.23.15.546: $GPVTG,357.10,T,,M,1.90,N,3.52,K,A*31
2010.09.10_20.23.16.529: $GPGGA,172315.000,4956.4069,N,03616.9534,E,1,9,1.20,123.0,M,17.0,M,,*5F
2010.09.10_20.23.16.532: $GPGSA,A,3,18,19,22,21,06,03,16,24,15,,,,2.19,1.20,1.84*04
2010.09.10_20.23.16.545: $GPGSV,4,1,13,18,71,104,41,06,64,283,41,22,55,193,42,21,53,081,33*78
2010.09.10_20.23.16.550: $GPGSV,4,2,13,03,49,295,44,16,32,230,26,39,29,194,29,24,28,269,34*7E
2010.09.10_20.23.16.554: $GPGSV,4,3,13,15,25,058,32,19,19,306,35,26,12,030,22,29,05,135,*7D
2010.09.10_20.23.16.558: $GPGSV,4,4,13,08,03,353,*45
2010.09.10_20.23.16.567: $GPRMC,172315.000,A,4956.4069,N,03616.9534,E,1.25,357.10,100910,,,A*6E
2010.09.10_20.23.16.574: $GPVTG,357.10,T,,M,1.25,N,2.32,K,A*38
2010.09.10_20.23.17.524: $GPGGA,172316.000,4956.4075,N,03616.9533,E,1,9,1.20,123.6,M,17.0,M,,*50
2010.09.10_20.23.17.538: $GPGSA,A,3,18,19,22,21,06,03,16,24,15,,,,2.19,1.20,1.84*04
2010.09.10_20.23.17.541: $GPGSV,4,1,13,18,71,104,41,06,64,283,41,22,55,193,42,21,53,081,34*7F
2010.09.10_20.23.17.545: $GPGSV,4,2,13,03,49,295,44,16,32,230,38,24,28,269,32,44,26,143,*73
2010.09.10_20.23.17.555: $GPGSV,4,3,13,15,25,058,31,19,19,306,36,26,12,030,23,29,05,135,*7C
2010.09.10_20.23.17.559: $GPGSV,4,4,13,08,03,353,*45
2010.09.10_20.23.17.562: $GPRMC,172316.000,A,4956.4075,N,03616.9533,E,1.25,357.10,100910,,,A*67
2010.09.10_20.23.17.566: $GPVTG,357.10,T,,M,1.25,N,2.32,K,A*38
2010.09.10_20.23.18.508: $GPGGA,172317.000,4956.4082,N,03616.9534,E,1,9,1.20,123.0,M,17.0,M,,*58
2010.09.10_20.23.18.511: $GPGSA,A,3,18,19,22,21,06,03,16,24,15,,,,2.19,1.20,1.84*04
2010.09.10_20.23.18.528: $GPGSV,4,1,13,18,71,104,33,06,64,283,42,22,55,193,43,21,53,081,41*7A
2010.09.10_20.23.18.536: $GPGSV,4,2,13,03,49,295,42,16,32,230,37,24,28,269,41,44,26,143,*7E
2010.09.10_20.23.18.539: $GPGSV,4,3,13,15,25,058,33,19,19,306,36,26,12,030,22,29,05,135,*7F
2010.09.10_20.23.18.543: $GPGSV,4,4,13,08,03,353,*45
2010.09.10_20.23.18.547: $GPRMC,172317.000,A,4956.4082,N,03616.9534,E,2.03,357.10,100910,,,A*6E
2010.09.10_20.23.18.550: $GPVTG,357.10,T,,M,2.03,N,3.76,K,A*3E
2010.09.10_20.23.19.519: $GPGGA,172318.000,4956.4086,N,03616.9545,E,1,9,1.10,123.4,M,17.0,M,,*52
2010.09.10_20.23.19.529: $GPGSA,A,3,18,19,22,21,06,03,16,24,15,,,,1.41,1.10,0.88*04
2010.09.10_20.23.19.536: $GPGSV,4,1,13,18,71,104,33,06,64,283,42,22,55,193,44,21,53,081,40*7C
2010.09.10_20.23.19.540: $GPGSV,4,2,13,03,49,295,41,16,32,230,35,24,28,269,40,44,26,143,*7E
2010.09.10_20.23.19.546: $GPGSV,4,3,13,15,25,058,33,19,19,306,28,26,12,030,21,29,05,135,*73
2010.09.10_20.23.19.550: $GPGSV,4,4,13,08,03,353,*45
2010.09.10_20.23.19.556: $GPRMC,172318.000,A,4956.4086,N,03616.9545,E,2.75,47.88,100910,,,A*51
2010.09.10_20.23.19.560: $GPVTG,47.88,T,,M,2.75,N,5.09,K,A*02
2010.09.10_20.23.20.534: $GPGGA,172319.000,4956.4089,N,03616.9558,E,1,8,1.12,123.5,M,17.0,M,,*52
2010.09.10_20.23.20.558: $GPGSA,A,3,19,22,21,06,03,16,24,15,,,,,1.44,1.12,0.89*0B
2010.09.10_20.23.20.566: $GPGSV,4,1,13,18,71,104,31,06,64,283,41,22,55,193,46,21,53,081,40*7F
2010.09.10_20.23.20.610: $GPGSV,4,2,13,03,49,295,39,16,32,230,37,24,28,269,39,15,25,058,32*70
2010.09.10_20.23.20.615: $GPGSV,4,3,13,19,19,306,28,33,15,239,,26,12,030,20,29,05,135,*70
2010.09.10_20.23.20.650: $GPGSV,4,4,13,08,03,353,*45
2010.09.10_20.23.20.655: $GPRMC,172319.000,A,4956.4089,N,03616.9558,E,3.78,71.60,100910,,,A*5C
2010.09.10_20.23.20.669: $GPVTG,71.60,T,,M,3.78,N,7.00,K,A*06
2010.09.10_20.23.21.528: $GPGGA,172320.000,4956.4095,N,03616.9577,E,1,9,1.10,124.7,M,17.0,M,,*5E
2010.09.10_20.23.21.541: $GPGSA,A,3,18,19,22,21,06,03,16,24,15,,,,1.41,1.10,0.88*04
2010.09.10_20.23.21.556: $GPGSV,4,1,13,18,71,104,40,06,64,283,42,22,55,193,45,21,53,081,41*78
2010.09.10_20.23.21.560: $GPGSV,4,2,13,03,49,295,39,16,32,230,39,24,28,269,39,15,25,058,31*7D
2010.09.10_20.23.21.564: $GPGSV,4,3,13,19,19,306,27,33,15,239,35,26,12,030,20,29,05,135,*79
2010.09.10_20.23.21.570: $GPGSV,4,4,13,08,03,353,*45
2010.09.10_20.23.21.578: $GPRMC,172320.000,A,4956.4095,N,03616.9577,E,5.00,88.43,100910,,,A*58
2010.09.10_20.23.21.582: $GPVTG,88.43,T,,M,5.00,N,9.27,K,A*03
